{"type":"FeatureCollection","features":[{"type":"Feature","geometry":{"type":"Point","coordinates":[29.79339,9.33389]},"properties":{"index":"0","county":"Rubkona","payam":"Bentiu Town","site_name":"Bentiu IDP Camp","displaced_hh":"16511","displaced_persons":"108539"}},{"type":"Feature","geometry":{"type":"Point","coordinates":[28.33609,8.99943]},"properties":{"index":"1","county":"Twic","payam":"Turalei","site_name":"Abien Dau IDP Site","displaced_hh":"6512","displaced_persons":"32518"}},{"type":"Feature","geometry":{"type":"Point","coordinates":[31.77993,5.18583]},"properties":{"index":"2","county":"Juba","payam":"Mangala North","site_name":"Mangalla","displaced_hh":"5860","displaced_persons":"35160"}},{"type":"Feature","geometry":{"type":"Point","coordinates":[29.83088,9.28269]},"properties":{"index":"3","county":"Fangak","payam":"Kuerguini","site_name":"New Fangak","displaced_hh":"5107","displaced_persons":"30278"}},{"type":"Feature","geometry":{"type":"Point","coordinates":[31.67819,9.57361]},"properties":{"index":"4","county":"Malakal","payam":"Northern Malakal","site_name":"Malakal POC","displaced_hh":"5063","displaced_persons":"41633"}},{"type":"Feature","geometry":{"type":"Point","coordinates":[30.516765,7.389836]},"properties":{"index":"5","county":"Leer","payam":"Ganyliel","site_name":"Dhorchiengper IDPs site","displaced_hh":"3628","displaced_persons":"29815"}},{"type":"Feature","geometry":{"type":"Point","coordinates":[31.58599,6.17606]},"properties":{"index":"6","county":"Bor South","payam":"Anyidi","site_name":"Taragook","displaced_hh":"3460","displaced_persons":"12541"}},{"type":"Feature","geometry":{"type":"Point","coordinates":[29.631297,9.594415]},"properties":{"index":"7","county":"Rubkona","payam":"Budaang","site_name":"Rotriak","displaced_hh":"3253","displaced_persons":"32010"}},{"type":"Feature","geometry":{"type":"Point","coordinates":[32.719114,8.653478]},"properties":{"index":"8","county":"Ulang","payam":"Ulang","site_name":"Ulang","displaced_hh":"3161","displaced_persons":"18966"}},{"type":"Feature","geometry":{"type":"Point","coordinates":[33.02282,7.731997]},"properties":{"index":"9","county":"Akobo","payam":"Bilkey","site_name":"Bilkey","displaced_hh":"3153","displaced_persons":"13409"}},{"type":"Feature","geometry":{"type":"Point","coordinates":[28.36089,9.12078]},"properties":{"index":"10","county":"Twic","payam":"Wunrok","site_name":"Mayen Abun (Gomgoi)","displaced_hh":"3037","displaced_persons":"15153"}},{"type":"Feature","geometry":{"type":"Point","coordinates":[27.469954,5.598928]},"properties":{"index":"11","county":"Tambura","payam":"Tambura","site_name":"UNMISS TOB Camp","displaced_hh":"2988","displaced_persons":"10091"}},{"type":"Feature","geometry":{"type":"Point","coordinates":[29.79288,9.29869]},"properties":{"index":"12","county":"Rubkona","payam":"Rubkona","site_name":"Kurkaal","displaced_hh":"2665","displaced_persons":"24592"}},{"type":"Feature","geometry":{"type":"Point","coordinates":[33.00487,7.995278]},"properties":{"index":"13","county":"Akobo","payam":"Nyandit","site_name":"Nyandit","displaced_hh":"2305","displaced_persons":"7810"}},{"type":"Feature","geometry":{"type":"Point","coordinates":[27.75791111,9.051555556]},"properties":{"index":"14","county":"Aweil East","payam":"Mathiang Dut Akot","site_name":"Mathiang Dut Akot","displaced_hh":"2274","displaced_persons":"13686"}},{"type":"Feature","geometry":{"type":"Point","coordinates":[31.57909,4.88773]},"properties":{"index":"15","county":"Juba","payam":"Northern Bari","site_name":"Mangaten","displaced_hh":"2205","displaced_persons":"15029"}},{"type":"Feature","geometry":{"type":"Point","coordinates":[31.51518,6.04999]},"properties":{"index":"16","county":"Awerial","payam":"Puluk","site_name":"Mingkaman IDP Site","displaced_hh":"2190","displaced_persons":"11388"}},{"type":"Feature","geometry":{"type":"Point","coordinates":[31.5721,6.25776]},"properties":{"index":"17","county":"Bor South","payam":"Makuach","site_name":"Kondai/Gakyoum","displaced_hh":"2161","displaced_persons":"12968"}},{"type":"Feature","geometry":{"type":"Point","coordinates":[31.6324,4.7924]},"properties":{"index":"18","county":"Juba","payam":"Rejaf","site_name":"Don Bosco","displaced_hh":"2100","displaced_persons":"10800"}},{"type":"Feature","geometry":{"type":"Point","coordinates":[31.5011,6.04953]},"properties":{"index":"19","county":"Awerial","payam":"Puluk","site_name":"Mingkaman IDP site 2","displaced_hh":"2095","displaced_persons":"10686"}},{"type":"Feature","geometry":{"type":"Point","coordinates":[33.0584,8.6244]},"properties":{"index":"20","county":"Luakpiny/Nasir","payam":"Nasir","site_name":"Nasir Town N","displaced_hh":"2063","displaced_persons":"12381"}},{"type":"Feature","geometry":{"type":"Point","coordinates":[31.61019,4.83046]},"properties":{"index":"21","county":"Juba","payam":"Juba","site_name":"Mahad","displaced_hh":"2000","displaced_persons":"12000"}},{"type":"Feature","geometry":{"type":"Point","coordinates":[32.81566667,11.78372222]},"properties":{"index":"22","county":"Renk","payam":"Kurdit","site_name":"Transit Center 2","displaced_hh":"1869","displaced_persons":"10512"}},{"type":"Feature","geometry":{"type":"Point","coordinates":[28.41011,9.07143]},"properties":{"index":"23","county":"Twic","payam":"Turalei","site_name":"Majak Aher","displaced_hh":"1829","displaced_persons":"9087"}},{"type":"Feature","geometry":{"type":"Point","coordinates":[32.24697,10.43475]},"properties":{"index":"24","county":"Melut","payam":"Melut","site_name":"Dingthoma 1","displaced_hh":"1787","displaced_persons":"10012"}},{"type":"Feature","geometry":{"type":"Point","coordinates":[31.53852,4.81967]},"properties":{"index":"25","county":"Juba","payam":"Rejaf","site_name":"Juba IDP Camp 1","displaced_hh":"1763","displaced_persons":"8817"}},{"type":"Feature","geometry":{"type":"Point","coordinates":[32.21602,10.44407]},"properties":{"index":"26","county":"Melut","payam":"Melut","site_name":"Dingthoma 2","displaced_hh":"1763","displaced_persons":"9875"}},{"type":"Feature","geometry":{"type":"Point","coordinates":[28,7.2]},"properties":{"index":"27","county":"Wau","payam":"Wau North","site_name":"Naivasha","displaced_hh":"1726","displaced_persons":"7000"}},{"type":"Feature","geometry":{"type":"Point","coordinates":[30.0537,8.38694]},"properties":{"index":"28","county":"Mayendit","payam":"Rubkuay","site_name":"Rubkuay IDP Site","displaced_hh":"1725","displaced_persons":"12015"}},{"type":"Feature","geometry":{"type":"Point","coordinates":[32.10833,9.8875]},"properties":{"index":"29","county":"Fashoda","payam":"Kodok Town","site_name":"Midwifery and Wildlife IDP site","displaced_hh":"1689","displaced_persons":"15575"}},{"type":"Feature","geometry":{"type":"Point","coordinates":[29.826,9.24937]},"properties":{"index":"30","county":"Fangak","payam":"Kuerguini","site_name":"Nine Counties Collective Site","displaced_hh":"1651","displaced_persons":"14866"}},{"type":"Feature","geometry":{"type":"Point","coordinates":[27.47572222222222,5.027013888888889]},"properties":{"index":"31","county":"Lafon","payam":"Lopa","site_name":"Lafon","displaced_hh":"1643","displaced_persons":"11410"}},{"type":"Feature","geometry":{"type":"Point","coordinates":[32.09322,10.12681]},"properties":{"index":"32","county":"Fashoda","payam":"Dethwok","site_name":"Abroch Site","displaced_hh":"1627","displaced_persons":"8137"}},{"type":"Feature","geometry":{"type":"Point","coordinates":[28.09306,7.794722]},"properties":{"index":"33","county":"Jur River","payam":"Marial Bai","site_name":"Marial Bai","displaced_hh":"1624","displaced_persons":"14631"}},{"type":"Feature","geometry":{"type":"Point","coordinates":[31.60701,6.1862]},"properties":{"index":"34","county":"Bor South","payam":"Anyidi","site_name":"Bor IDP/Ex poc.","displaced_hh":"1547","displaced_persons":"4410"}},{"type":"Feature","geometry":{"type":"Point","coordinates":[27.7706315910058,6.39421439927062]},"properties":{"index":"35","county":"Nagero","payam":"Duma","site_name":"Duma Centre","displaced_hh":"1489","displaced_persons":"3510"}},{"type":"Feature","geometry":{"type":"Point","coordinates":[27.291881,5.411056]},"properties":{"index":"36","county":"Ezo","payam":"Ezo","site_name":"Nakofo","displaced_hh":"1417","displaced_persons":"7085"}},{"type":"Feature","geometry":{"type":"Point","coordinates":[32.1557777777777,10.5769444]},"properties":{"index":"37","county":"Malakal","payam":"Kaka","site_name":"Kaka","displaced_hh":"1384","displaced_persons":"8425"}},{"type":"Feature","geometry":{"type":"Point","coordinates":[31.66577,9.5061]},"properties":{"index":"38","county":"Malakal","payam":"Malakal South","site_name":"Daniel Comboni Church - BAM","displaced_hh":"1367","displaced_persons":"15994"}},{"type":"Feature","geometry":{"type":"Point","coordinates":[27.280351,5.515775]},"properties":{"index":"39","county":"Ezo","payam":"Ezo","site_name":"Regina Mundi","displaced_hh":"1325","displaced_persons":"6875"}},{"type":"Feature","geometry":{"type":"Point","coordinates":[27.27778,5.373231]},"properties":{"index":"40","county":"Ezo","payam":"Ezo","site_name":"Nambia","displaced_hh":"1259","displaced_persons":"6295"}},{"type":"Feature","geometry":{"type":"Point","coordinates":[30.13761,8.3075]},"properties":{"index":"41","county":"Leer","payam":"Nyangdiar","site_name":"Pomdhor","displaced_hh":"1249","displaced_persons":"7492"}},{"type":"Feature","geometry":{"type":"Point","coordinates":[30.1394,8.30994]},"properties":{"index":"42","county":"Leer","payam":"Juong","site_name":"Rubjiech IDP Site","displaced_hh":"1242","displaced_persons":"7541"}},{"type":"Feature","geometry":{"type":"Point","coordinates":[28.10278,7.7775]},"properties":{"index":"43","county":"Jur River","payam":"Rocrocdong","site_name":"Rocrocdong","displaced_hh":"1200","displaced_persons":"9185"}},{"type":"Feature","geometry":{"type":"Point","coordinates":[31.60538,6.2158]},"properties":{"index":"44","county":"Bor South","payam":"Bor","site_name":"Bor Stadium IDP Site","displaced_hh":"1129","displaced_persons":"4765"}},{"type":"Feature","geometry":{"type":"Point","coordinates":[28.58996,9.201]},"properties":{"index":"45","county":"Twic","payam":"Aweng","site_name":"Majok Noon","displaced_hh":"1110","displaced_persons":"5506"}},{"type":"Feature","geometry":{"type":"Point","coordinates":[29.7966,9.25338]},"properties":{"index":"46","county":"Rubkona","payam":"Panhiany","site_name":"Site B","displaced_hh":"1055","displaced_persons":"9223"}},{"type":"Feature","geometry":{"type":"Point","coordinates":[29.80802,9.27087]},"properties":{"index":"47","county":"Rubkona","payam":"Panhiany","site_name":"Site A","displaced_hh":"1037","displaced_persons":"8876"}},{"type":"Feature","geometry":{"type":"Point","coordinates":[33.79333,6.50667]},"properties":{"index":"48","county":"Bor South","payam":"Gumruk","site_name":"Malualgobar","displaced_hh":"1028","displaced_persons":"4413"}},{"type":"Feature","geometry":{"type":"Point","coordinates":[31.53154,7.54226]},"properties":{"index":"49","county":"Akobo","payam":"Walgak","site_name":"Walgak","displaced_hh":"978","displaced_persons":"2934"}},{"type":"Feature","geometry":{"type":"Point","coordinates":[29.77946,9.23373]},"properties":{"index":"50","county":"Rubkona","payam":"Panhiany","site_name":"Site C","displaced_hh":"915","displaced_persons":"7549"}},{"type":"Feature","geometry":{"type":"Point","coordinates":[29.83107,9.24977]},"properties":{"index":"51","county":"Guit","payam":"Kuerguini","site_name":"Site E","displaced_hh":"893","displaced_persons":"7262"}},{"type":"Feature","geometry":{"type":"Point","coordinates":[27.47068611111111,5.587352777777777]},"properties":{"index":"52","county":"Tambura","payam":"Tambura","site_name":"Complex Camp","displaced_hh":"884","displaced_persons":"3747"}},{"type":"Feature","geometry":{"type":"Point","coordinates":[32.81091667,11.78211111]},"properties":{"index":"53","county":"Renk","payam":"Kurdit","site_name":"Transit Center 1","displaced_hh":"876","displaced_persons":"5156"}},{"type":"Feature","geometry":{"type":"Point","coordinates":[27.56247,9.02485]},"properties":{"index":"54","county":"Aweil East","payam":"Kanajak","site_name":"Kanajak","displaced_hh":"868","displaced_persons":"6358"}},{"type":"Feature","geometry":{"type":"Point","coordinates":[24.810921,8.462918]},"properties":{"index":"55","county":"Raja","payam":"Ringi","site_name":"Boro-Medina","displaced_hh":"861","displaced_persons":"4567"}},{"type":"Feature","geometry":{"type":"Point","coordinates":[27.75791112,9.051555557]},"properties":{"index":"56","county":"Aweil East","payam":"Akong","site_name":"Akoong","displaced_hh":"846","displaced_persons":"5272"}},{"type":"Feature","geometry":{"type":"Point","coordinates":[32.4592,10.2728]},"properties":{"index":"57","county":"Melut","payam":"Galdora","site_name":"Khor Adar Site","displaced_hh":"798","displaced_persons":"4387"}},{"type":"Feature","geometry":{"type":"Point","coordinates":[31.5283,4.80979]},"properties":{"index":"58","county":"Juba","payam":"Rejaf","site_name":"Juba IDP Camp 3","displaced_hh":"796","displaced_persons":"22462"}},{"type":"Feature","geometry":{"type":"Point","coordinates":[33.574,9.9705]},"properties":{"index":"59","county":"Maban","payam":"Buny","site_name":"Batiel","displaced_hh":"748","displaced_persons":"3797"}},{"type":"Feature","geometry":{"type":"Point","coordinates":[28.94014,9.19329]},"properties":{"index":"60","county":"Twic","payam":"Aweng","site_name":"Aweng","displaced_hh":"741","displaced_persons":"3653"}},{"type":"Feature","geometry":{"type":"Point","coordinates":[28,7.42]},"properties":{"index":"61","county":"Wau","payam":"Wau South","site_name":"Hai Masna","displaced_hh":"736","displaced_persons":"2996"}},{"type":"Feature","geometry":{"type":"Point","coordinates":[28.04755,9.21783]},"properties":{"index":"62","county":"Twic","payam":"Akoc","site_name":"Wuncuei site","displaced_hh":"719","displaced_persons":"1347"}},{"type":"Feature","geometry":{"type":"Point","coordinates":[31.65491,9.53716]},"properties":{"index":"63","county":"Malakal","payam":"Malakal Centre","site_name":"Fire Brigade","displaced_hh":"670","displaced_persons":"6192"}},{"type":"Feature","geometry":{"type":"Point","coordinates":[30.7451,4.12986]},"properties":{"index":"64","county":"Yei","payam":"Yei Town","site_name":"Atende Site","displaced_hh":"526","displaced_persons":"2630"}},{"type":"Feature","geometry":{"type":"Point","coordinates":[31.88762,7.872917]},"properties":{"index":"65","county":"Uror","payam":"Uror","site_name":"Yuai","displaced_hh":"500","displaced_persons":"3000"}},{"type":"Feature","geometry":{"type":"Point","coordinates":[32.04182,8.5]},"properties":{"index":"66","county":"Nyirol","payam":"Thol","site_name":"Thol Site","displaced_hh":"500","displaced_persons":"2500"}},{"type":"Feature","geometry":{"type":"Point","coordinates":[30.14068,8.30857]},"properties":{"index":"67","county":"Leer","payam":"Palot","site_name":"Rekyoul IDPs site","displaced_hh":"475","displaced_persons":"2851"}},{"type":"Feature","geometry":{"type":"Point","coordinates":[27.469402777777777,5.602736111111111]},"properties":{"index":"68","county":"Tambura","payam":"Tambura","site_name":"Baracks Camp","displaced_hh":"460","displaced_persons":"1764"}},{"type":"Feature","geometry":{"type":"Point","coordinates":[31.6605,9.495333]},"properties":{"index":"69","county":"Malakal","payam":"Malakal South","site_name":"Way Station","displaced_hh":"457","displaced_persons":"3739"}},{"type":"Feature","geometry":{"type":"Point","coordinates":[27.478444444444442,5.611777777777777]},"properties":{"index":"70","county":"Tambura","payam":"Tambura","site_name":"St. Mary Camp","displaced_hh":"433","displaced_persons":"1397"}},{"type":"Feature","geometry":{"type":"Point","coordinates":[29.79219,9.24071]},"properties":{"index":"71","county":"Rubkona","payam":"Bentiu","site_name":"Koyethiey Site","displaced_hh":"426","displaced_persons":"2556"}},{"type":"Feature","geometry":{"type":"Point","coordinates":[31.57135,9.31011]},"properties":{"index":"72","county":"Canal Pigi","payam":"Nyinthok","site_name":"Panmam","displaced_hh":"420","displaced_persons":"2352"}},{"type":"Feature","geometry":{"type":"Point","coordinates":[31.50189,7.41442]},"properties":{"index":"73","county":"Gogrial West","payam":"Akon","site_name":"Akon Center","displaced_hh":"413","displaced_persons":"1002"}},{"type":"Feature","geometry":{"type":"Point","coordinates":[29.82725,9.28044]},"properties":{"index":"74","county":"Guit","payam":"Kuerguini","site_name":"Site D2","displaced_hh":"374","displaced_persons":"2965"}},{"type":"Feature","geometry":{"type":"Point","coordinates":[32.578,10.423]},"properties":{"index":"75","county":"Melut","payam":"Paloch","site_name":"New paloch","displaced_hh":"368","displaced_persons":"2248"}},{"type":"Feature","geometry":{"type":"Point","coordinates":[27.30015,5.3954]},"properties":{"index":"76","county":"Tambura","payam":"Source Yubu","site_name":"Ngboko village","displaced_hh":"365","displaced_persons":"1990"}},{"type":"Feature","geometry":{"type":"Point","coordinates":[27.287174,5.580297]},"properties":{"index":"77","county":"Ezo","payam":"Ezo","site_name":"Manzizi","displaced_hh":"364","displaced_persons":"2320"}},{"type":"Feature","geometry":{"type":"Point","coordinates":[31.55,9.407]},"properties":{"index":"78","county":"Panyikang","payam":"Panyiduay","site_name":"Owaci","displaced_hh":"363","displaced_persons":"1984"}},{"type":"Feature","geometry":{"type":"Point","coordinates":[30.69268,4.10394]},"properties":{"index":"79","county":"Yei","payam":"Yei Town","site_name":"Gezira","displaced_hh":"351","displaced_persons":"1755"}},{"type":"Feature","geometry":{"type":"Point","coordinates":[31.60181,6.06782]},"properties":{"index":"80","county":"Bor South","payam":"Kolnyang","site_name":"Malek","displaced_hh":"336","displaced_persons":"1680"}},{"type":"Feature","geometry":{"type":"Point","coordinates":[30.05869,6.54418]},"properties":{"index":"81","county":"Rumbek East","payam":"Akot","site_name":"Rich Tiel","displaced_hh":"291","displaced_persons":"1569"}},{"type":"Feature","geometry":{"type":"Point","coordinates":[32.05999,8.5253]},"properties":{"index":"82","county":"Nyirol","payam":"Lankien","site_name":"Koat","displaced_hh":"283","displaced_persons":"1500"}},{"type":"Feature","geometry":{"type":"Point","coordinates":[32.065,8.515]},"properties":{"index":"83","county":"Nyirol","payam":"Lankien","site_name":"Wectulual","displaced_hh":"280","displaced_persons":"1400"}},{"type":"Feature","geometry":{"type":"Point","coordinates":[29.78898,9.2932]},"properties":{"index":"84","county":"Rubkona","payam":"Panhiany","site_name":"Suk Sita Site (Bentiu)","displaced_hh":"277","displaced_persons":"1928"}},{"type":"Feature","geometry":{"type":"Point","coordinates":[27.455972222222222,5.572638888888888]},"properties":{"index":"85","county":"Tambura","payam":"Tambura","site_name":"Mangburu Camp","displaced_hh":"230","displaced_persons":"1764"}},{"type":"Feature","geometry":{"type":"Point","coordinates":[27.5,5.65]},"properties":{"index":"86","county":"Tambura","payam":"Tambura","site_name":"Ayati Camp","displaced_hh":"230","displaced_persons":"1053"}},{"type":"Feature","geometry":{"type":"Point","coordinates":[30.4281267653206,3.93919542458307]},"properties":{"index":"87","county":"Yei","payam":"Lasu","site_name":"Lasu Camp","displaced_hh":"220","displaced_persons":"1100"}},{"type":"Feature","geometry":{"type":"Point","coordinates":[33.51631,9.94023]},"properties":{"index":"88","county":"Maban","payam":"Jinkuata","site_name":"Kongo Site","displaced_hh":"217","displaced_persons":"1196"}},{"type":"Feature","geometry":{"type":"Point","coordinates":[27.9713,8.8982]},"properties":{"index":"89","county":"Gogrial West","payam":"Gogrial","site_name":"Ayiel","displaced_hh":"193","displaced_persons":"984"}},{"type":"Feature","geometry":{"type":"Point","coordinates":[31.938,8.59924]},"properties":{"index":"90","county":"Nyirol","payam":"Pulturuk","site_name":"Pulrel Site","displaced_hh":"189","displaced_persons":"1134"}},{"type":"Feature","geometry":{"type":"Point","coordinates":[32.03921,8.55853]},"properties":{"index":"91","county":"Nyirol","payam":"Lankien","site_name":"Yamguar","displaced_hh":"188","displaced_persons":"940"}},{"type":"Feature","geometry":{"type":"Point","coordinates":[29.8291,9.26478]},"properties":{"index":"92","county":"Guit","payam":"Kuerguini","site_name":"Makazin IDP Site","displaced_hh":"182","displaced_persons":"1573"}},{"type":"Feature","geometry":{"type":"Point","coordinates":[27.252533333333332,5.385866666666667]},"properties":{"index":"93","county":"Tambura","payam":"Source Yubu","site_name":"Nanvuru","displaced_hh":"164","displaced_persons":"768"}},{"type":"Feature","geometry":{"type":"Point","coordinates":[31.6562,9.48067]},"properties":{"index":"94","county":"Malakal","payam":"Malakal South","site_name":"Wunakot/Warjwork","displaced_hh":"142","displaced_persons":"942"}},{"type":"Feature","geometry":{"type":"Point","coordinates":[32.90548,6.63343]},"properties":{"index":"95","county":"Pibor","payam":"Gumruk","site_name":"Nganamen","displaced_hh":"141","displaced_persons":"776"}},{"type":"Feature","geometry":{"type":"Point","coordinates":[33.54955,10.08259]},"properties":{"index":"96","county":"Maban","payam":"Jinkuata","site_name":"Ofra Site","displaced_hh":"130","displaced_persons":"781"}},{"type":"Feature","geometry":{"type":"Point","coordinates":[29.78794,9.24155]},"properties":{"index":"97","county":"Rubkona","payam":"Panhiany","site_name":"Kalibalek (Bentiu Town)","displaced_hh":"108","displaced_persons":"905"}},{"type":"Feature","geometry":{"type":"Point","coordinates":[32.4,9.09]},"properties":{"index":"98","county":"Baliet","payam":"Gel Achiel","site_name":"Gel Achiel","displaced_hh":"98","displaced_persons":"592"}},{"type":"Feature","geometry":{"type":"Point","coordinates":[30.02263,8.21653]},"properties":{"index":"99","county":"Mayendit","payam":"Dablual","site_name":"Kah","displaced_hh":"88","displaced_persons":"528"}},{"type":"Feature","geometry":{"type":"Point","coordinates":[32.90856,6.63872]},"properties":{"index":"100","county":"Pibor","payam":"Gumruk","site_name":"Clement Primary School","displaced_hh":"86","displaced_persons":"473"}},{"type":"Feature","geometry":{"type":"Point","coordinates":[29.7932,9.2494]},"properties":{"index":"101","county":"Rubkona","payam":"Panhiany","site_name":"Former Military Barrack (Bentiu)","displaced_hh":"86","displaced_persons":"817"}},{"type":"Feature","geometry":{"type":"Point","coordinates":[29.7973,9.26422]},"properties":{"index":"102","county":"Rubkona","payam":"Panhiany","site_name":"Dar El-Saalam (Bentiu)","displaced_hh":"61","displaced_persons":"566"}},{"type":"Feature","geometry":{"type":"Point","coordinates":[27.67043644,5.18267478962665]},"properties":{"index":"103","county":"Ezo","payam":"Bagidi Centre","site_name":"Bagidi","displaced_hh":"58","displaced_persons":"290"}},{"type":"Feature","geometry":{"type":"Point","coordinates":[32.91255,6.64881]},"properties":{"index":"104","county":"Pibor","payam":"Pibor","site_name":"Pibor Girls Primary School","displaced_hh":"58","displaced_persons":"354"}},{"type":"Feature","geometry":{"type":"Point","coordinates":[32.90735,6.63128]},"properties":{"index":"105","county":"Pibor","payam":"Gumruk","site_name":"Gumruk Girls Primary School","displaced_hh":"49","displaced_persons":"270"}},{"type":"Feature","geometry":{"type":"Point","coordinates":[28.0992,8.5337]},"properties":{"index":"106","county":"Gogrial West","payam":"Alek West","site_name":"Mangar Pakal","displaced_hh":"49","displaced_persons":"103"}},{"type":"Feature","geometry":{"type":"Point","coordinates":[33.13422,6.79129]},"properties":{"index":"107","county":"Pibor","payam":"Pibor","site_name":"Langachot Child Space","displaced_hh":"43","displaced_persons":"219"}},{"type":"Feature","geometry":{"type":"Point","coordinates":[33.12,6.79851]},"properties":{"index":"108","county":"Pibor","payam":"Pibor","site_name":"Pibor AA","displaced_hh":"43","displaced_persons":"237"}},{"type":"Feature","geometry":{"type":"Point","coordinates":[29.448,8.12]},"properties":{"index":"109","county":"Tonj East","payam":"Paweng","site_name":"Potkou","displaced_hh":"37","displaced_persons":"192"}},{"type":"Feature","geometry":{"type":"Point","coordinates":[28.43217,9.09053]},"properties":{"index":"110","county":"Twic","payam":"Turalei","site_name":"Turalei","displaced_hh":"35","displaced_persons":"196"}},{"type":"Feature","geometry":{"type":"Point","coordinates":[33.00819,7.04946]},"properties":{"index":"111","county":"Pibor","payam":"Lekuangole","site_name":"Nyanzego Nursery School","displaced_hh":"24","displaced_persons":"132"}},{"type":"Feature","geometry":{"type":"Point","coordinates":[29.7973,9.23804]},"properties":{"index":"112","county":"Rubkona","payam":"Panhiany","site_name":"Suk Saba Site (Bentiu)","displaced_hh":"18","displaced_persons":"133"}},{"type":"Feature","geometry":{"type":"Point","coordinates":[29.80439,9.26422]},"properties":{"index":"113","county":"Rubkona","payam":"Panhiany","site_name":"Suk Shaabi (Bentiu)","displaced_hh":"11","displaced_persons":"104"}},{"type":"Feature","geometry":{"type":"Point","coordinates":[32.81091667,11.78211111]},"properties":{"displaced":"51156","source":"IOM"}},{"type":"Feature","geometry":{"type":"Point","coordinates":[34.02002891,8.47299268]},"properties":{"displaced":"153347","source":"IOM"}},{"type":"Feature","geometry":{"type":"Point","coordinates":[33.8,8.394]},"properties":{"displaced":"25600","source":"IOM"}},{"type":"Feature","geometry":{"type":"Point","coordinates":[33.23139205,8.4252161]},"properties":{"displaced":"158379","source":"IOM"}},{"type":"Feature","geometry":{"type":"Point","coordinates":[28.48638889,4.446666]},"properties":{"displaced":"23323","source":"IOM"}},{"type":"Feature","geometry":{"type":"Point","coordinates":[29.08377,4.491989]},"properties":{"displaced":"30193","source":"IOM"}},{"type":"Feature","geometry":{"type":"Point","coordinates":[30.813039,3.589592]},"properties":{"displaced":"118971","source":"IOM"}},{"type":"Feature","geometry":{"type":"Point","coordinates":[31.310033,3.786117]},"properties":{"displaced":"164316","source":"IOM"}},{"type":"Feature","geometry":{"type":"Point","coordinates":[32.07379,3.571205]},"properties":{"displaced":"161474","source":"IOM"}},{"type":"Feature","geometry":{"type":"Point","coordinates":[30.88305556,3.53972222]},"properties":{"displaced":"309527","source":"IOM"}},{"type":"Feature","geometry":{"type":"Point","coordinates":[25.677772,8.473169]},"properties":{"displaced":"14088","source":"IOM"}},{"type":"Feature","geometry":{"type":"Point","coordinates":[26.819653,9.686756]},"properties":{"displaced":"22250","source":"IOM"}},{"type":"Feature","geometry":{"type":"Point","coordinates":[27.145402,9.472197]},"properties":{"displaced":"8817","source":"IOM"}},{"type":"Feature","geometry":{"type":"Point","coordinates":[27.773139,9.686861]},"properties":{"displaced":"18456","source":"IOM"}},{"type":"Feature","geometry":{"type":"Point","coordinates":[27.39983,8.76708]},"properties":{"displaced":"28999","source":"IOM"}},{"type":"Feature","geometry":{"type":"Point","coordinates":[28.02322,7.70087]},"properties":{"displaced":"41232","source":"IOM"}},{"type":"Feature","geometry":{"type":"Point","coordinates":[27.98819,7.69826]},"properties":{"displaced":"2076","source":"IOM"}},{"type":"Feature","geometry":{"type":"Point","coordinates":[27.98512,7.75374]},"properties":{"displaced":"17005","source":"IOM"}},{"type":"Feature","geometry":{"type":"Point","coordinates":[32.81023,11.64489]},"properties":{"displaced":"23415","source":"IOM"}},{"type":"Feature","geometry":{"type":"Point","coordinates":[32.811666,11.780607]},"properties":{"displaced":"42476","source":"IOM"}},{"type":"Feature","geometry":{"type":"Point","coordinates":[32.77978846,11.76136444]},"properties":{"displaced":"185461","source":"IOM"}},{"type":"Feature","geometry":{"type":"Point","coordinates":[32.81577,11.74086]},"properties":{"displaced":"149404","source":"IOM"}}]}